[{"business_id":"7zDbcbUkafhkanpTE5TQRQ","categories":["Indian","Restaurants"],"city":"Blacksburg","full_address":"210 Prices Fork Rd\nBlacksburg, VA 24060","latitude":37.2346992492676,"longitude":-80.4213027954102,"name":"India Garden Restaurant","neighborhoods":[],"open":true,"photo_url":"http://s3-media1.px.yelpcdn.com/bphoto/2ib60O025kY_YLqab5Vdqg/ms.jpg","review_count":14,"schools":["Virginia Tech"],"stars":3.5,"state":"VA","type":"business","url":"http://www.yelp.com/biz/india-garden-restaurant-blacksburg"},
{"business_id":"B1yzS_JFgWxQVHsqQp-d7g","categories":["Japanese","Restaurants"],"city":"Christiansburg","full_address":"120 Arbor Dr\nChristiansburg, VA 24073","latitude":37.1689987182617,"longitude":-80.4185028076172,"name":"Kabuki Japanese Steak House","neighborhoods":[],"open":true,"photo_url":"http://s3-media4.px.yelpcdn.com/bphoto/NoQFQdpgkq0CNAyVzAyZ-g/ms.jpg","review_count":10,"schools":["Virginia Tech"],"stars":2.5,"state":"VA","type":"business","url":"http://www.yelp.com/biz/kabuki-japanese-steak-house-christiansburg"},
{"business_id":"Y0WP6ZFx-CSYmsbKogLkhQ","categories":["American (New)","Restaurants"],"city":"Christiansburg","full_address":"2650 Market St\nChristiansburg, VA 24073","latitude":37.1640014648438,"longitude":-80.4216995239258,"name":"Arby's Roastbeef Restaurant","neighborhoods":[],"open":true,"photo_url":"http://s3-media1.px.yelpcdn.com/bphoto/cU1SR9s3k2sgwTjNblYYfg/ms.jpg","review_count":2,"schools":["Virginia Tech"],"stars":3.0,"state":"VA","type":"business","url":"http://www.yelp.com/biz/arbys-roastbeef-restaurant-christiansburg"},
{"business_id":"PDX3igOBbL_HhUD0ZM-e3Q","categories":["Hotels & Travel","Event Planning & Services","Venues & Event Spaces","Hotels"],"city":"Blacksburg","full_address":"900 Plantation Rd.\nBlacksburg, VA 24060","latitude":37.2210123,"longitude":-80.4415372,"name":"Hilton Garden Inn Blacksburg Hotel","neighborhoods":[],"open":true,"photo_url":"http://s3-media1.px.yelpcdn.com/bphoto/olAde9DBiT8i6VqdHcc0FA/ms.jpg","review_count":2,"schools":["Virginia Tech"],"stars":4.0,"state":"VA","type":"business","url":"http://www.yelp.com/biz/hilton-garden-inn-blacksburg-hotel-blacksburg"},
{"business_id":"bLxwwBFOgqpxUiwDKCz9dw","categories":["Food","Farmers Market"],"city":"Blacksburg","full_address":"PO Box 568\nBlacksburg, VA 24060","latitude":37.2287911,"longitude":-80.4147551,"name":"Blacksburg Farmers Market","neighborhoods":[],"open":true,"photo_url":"http://media1.px.yelpcdn.com/static/201012163223336441/img/gfx/blank_biz_medium.gif","review_count":2,"schools":["Virginia Tech"],"stars":4.5,"state":"VA","type":"business","url":"http://www.yelp.com/biz/blacksburg-farmers-market-blacksburg"},
{"business_id":"QxiEo0oS1MyBrr0vWlMqyg","categories":["Auto Repair","Automotive","Car Dealers"],"city":"Christiansburg","full_address":"2130 N Franklin St\nChristiansburg, VA 24073","latitude":37.1581,"longitude":-80.4203,"name":"New River Nissan","neighborhoods":[],"open":true,"photo_url":"http://s3-media4.px.yelpcdn.com/bphoto/yJqBVFFttahN-6s9Ecxnpg/ms.jpg","review_count":2,"schools":["Virginia Tech"],"stars":5.0,"state":"VA","type":"business","url":"http://www.yelp.com/biz/new-river-nissan-christiansburg"},
{"business_id":"g-mJhTtvg_uyv5zRFCIOkQ","categories":["American (Traditional)","Restaurants"],"city":"Blacksburg","full_address":"1001 N Main St\nBlacksburg, VA 24060","latitude":37.2387,"longitude":-80.4204,"name":"Abby's Restaurant & Bar","neighborhoods":[],"open":true,"photo_url":"http://s3-media1.px.yelpcdn.com/bphoto/RMqq8jVOFU4mWtI6TPgD2Q/ms.jpg","review_count":3,"schools":["Virginia Tech"],"stars":3.5,"state":"VA","type":"business","url":"http://www.yelp.com/biz/abbys-restaurant-and-bar-blacksburg"},
{"business_id":"hIl5mwJaGY1P95pf8cKciA","categories":["Food","Bakeries","Donuts"],"city":"Blacksburg","full_address":"1414 N Main St\nBlacksburg, VA 24060","latitude":37.2472,"longitude":-80.4139,"name":"Carol Lee Donuts","neighborhoods":[],"open":true,"photo_url":"http://s3-media4.px.yelpcdn.com/bphoto/skGMiiBW-zhkiJB73LhjzA/ms.jpg","review_count":9,"schools":["Virginia Tech"],"stars":5.0,"state":"VA","type":"business","url":"http://www.yelp.com/biz/carol-lee-donuts-blacksburg"},
{"business_id":"_DdrjFmOox7E_eMIe-5_Jg","categories":["Automotive","Towing"],"city":"Blacksburg","full_address":"600 N Main St\nBlacksburg, VA 24060","latitude":37.2333984375,"longitude":-80.418098449707,"name":"Campus Exxon Servicenter","neighborhoods":[],"open":true,"photo_url":"http://media1.px.yelpcdn.com/static/201012163223336441/img/gfx/blank_biz_medium.gif","review_count":2,"schools":["Virginia Tech"],"stars":1.5,"state":"VA","type":"business","url":"http://www.yelp.com/biz/campus-exxon-servicenter-blacksburg"},
{"business_id":"GJIZlVlPncUQk9x1EjgnFA","categories":["Food","Bakeries","Coffee & Tea","Sandwiches","Restaurants"],"city":"Blacksburg","full_address":"715 University City Blvd\nBlacksburg, VA 24060","latitude":37.232106,"longitude":-80.432603,"name":"Panera Bread","neighborhoods":[],"open":true,"photo_url":"http://s3-media2.px.yelpcdn.com/bphoto/uty3_xhifVpb0pK2nammGQ/ms.jpg","review_count":3,"schools":["Virginia Tech"],"stars":3.5,"state":"VA","type":"business","url":"http://www.yelp.com/biz/panera-bread-blacksburg"},
{"business_id":"gomSgjEesyhMgdN8w2tBOA","categories":["Vegetarian","Vegan","Restaurants"],"city":"Blacksburg","full_address":"153 College Ave\nBlacksburg, VA 24060","latitude":37.2301638,"longitude":-80.4160772,"name":"Gillie's Cuisine","neighborhoods":[],"open":true,"photo_url":"http://s3-media3.px.yelpcdn.com/bphoto/BaMpOZMAy89TjtT6emvXzg/ms.jpg","review_count":50,"schools":["Virginia Tech"],"stars":4.0,"state":"VA","type":"business","url":"http://www.yelp.com/biz/gillies-cuisine-blacksburg"},
{"business_id":"kjrq7LOaMawzLTVlLMpApQ","categories":["Burgers","Restaurants"],"city":"Christiansburg","full_address":"105 Peppers Ferry Rd NW\nChristiansburg, VA 24073","latitude":37.163386,"longitude":-80.425858,"name":"Red Robin Gourmet Burgers","neighborhoods":[],"open":true,"photo_url":"http://media1.px.yelpcdn.com/static/201012163223336441/img/gfx/blank_biz_medium.gif","review_count":5,"schools":["Virginia Tech"],"stars":3.5,"state":"VA","type":"business","url":"http://www.yelp.com/biz/red-robin-gourmet-burgers-christiansburg"},
{"business_id":"N19o2kuH7hcfnf5xzfC6AA","categories":["Banks & Credit Unions","Financial Services","Mortgage Brokers","Home Services","Real Estate"],"city":"Blacksburg","full_address":"1900 S Main St\nBlacksburg, VA 24060","latitude":37.2066993713379,"longitude":-80.3991012573242,"name":"Bank of America","neighborhoods":[],"open":true,"photo_url":"http://s3-media3.px.yelpcdn.com/bphoto/MXKmSEYEOp2cnYzoJb4CkQ/ms.jpg","review_count":2,"schools":["Virginia Tech"],"stars":4.5,"state":"VA","type":"business","url":"http://www.yelp.com/biz/bank-of-america-blacksburg"},
{"business_id":"G_GPyXy1k9yA3njUJpW55g","categories":["Sushi Bars","Restaurants"],"city":"Blacksburg","full_address":"201 N Main St\nBlacksburg, VA 24060","latitude":37.2299995422363,"longitude":-80.4148025512695,"name":"Poor Billy's Seafood Restaurant","neighborhoods":[],"open":true,"photo_url":"http://s3-media2.px.yelpcdn.com/bphoto/KWwYiObXFTRXSW01r1EIFg/ms.jpg","review_count":10,"schools":["Virginia Tech"],"stars":3.0,"state":"VA","type":"business","url":"http://www.yelp.com/biz/poor-billys-seafood-restaurant-blacksburg"},
{"business_id":"76hIZMzHZ_lFM0p2N7_gRQ","categories":["Greek","Restaurants"],"city":"Blacksburg","full_address":"302 N Main St\nBlacksburg, VA 24060","latitude":37.231,"longitude":-80.4148,"name":"The Cellar Restaurant","neighborhoods":[],"open":true,"photo_url":"http://s3-media1.px.yelpcdn.com/bphoto/fzwXceIJMdTeQ1rFhulI9w/ms.jpg","review_count":27,"schools":["Virginia Tech"],"stars":3.5,"state":"VA","type":"business","url":"http://www.yelp.com/biz/the-cellar-restaurant-blacksburg"},
{"business_id":"RrczVxs8amaeQm-bVx96sA","categories":["Pizza","Restaurants"],"city":"Blacksburg","full_address":"860 University City Blvd\nBlacksburg, VA 24060","latitude":37.2346992492676,"longitude":-80.4338989257812,"name":"Firehouse Pizza","neighborhoods":[],"open":true,"photo_url":"http://media1.px.yelpcdn.com/static/201012163223336441/img/gfx/blank_biz_medium.gif","review_count":4,"schools":["Virginia Tech"],"stars":3.0,"state":"VA","type":"business","url":"http://www.yelp.com/biz/firehouse-pizza-blacksburg"},
{"business_id":"XdUJ1x8JZEB5Q1wer-c28g","categories":["Mexican","Restaurants"],"city":"Blacksburg","full_address":"1410 S Main St\nBlacksburg, VA 24060","latitude":37.2159004211426,"longitude":-80.4011001586914,"name":"El Guadalupes","neighborhoods":[],"open":false,"photo_url":"http://media1.px.yelpcdn.com/static/201012163223336441/img/gfx/blank_biz_medium.gif","review_count":2,"schools":["Virginia Tech"],"stars":4.0,"state":"VA","type":"business","url":"http://www.yelp.com/biz/el-guadalupes-blacksburg"},
{"business_id":"u1wF70zlIMVOG9sPvwyojA","categories":["American (Traditional)","Restaurants"],"city":"Blacksburg","full_address":"901 Prices Fork Road\nBlacksburg, VA 24061","latitude":37.229807,"longitude":-80.429986,"name":"Preston's","neighborhoods":[],"open":true,"photo_url":"http://media1.px.yelpcdn.com/static/201012163223336441/img/gfx/blank_biz_medium.gif","review_count":2,"schools":["Virginia Tech"],"stars":2.5,"state":"VA","type":"business","url":"http://www.yelp.com/biz/prestons-blacksburg"},
{"business_id":"zTuPYiRzmeYZqjxTeAqhSA","categories":["Sandwiches","Restaurants"],"city":"Blacksburg","full_address":"217 College Ave\nBlacksburg, VA 24060","latitude":37.2299,"longitude":-80.41681,"name":"Jimmy Johns Gourmet Sandwiches","neighborhoods":[],"open":true,"photo_url":"http://s3-media1.px.yelpcdn.com/bphoto/0iUqSAxngdne9sFtTlk4Iw/ms.jpg","review_count":4,"schools":["Virginia Tech"],"stars":3.5,"state":"VA","type":"business","url":"http://www.yelp.com/biz/jimmy-johns-gourmet-sandwiches-blacksburg"},
{"business_id":"TMCgLFmkcs5px-U0iaW5ag","categories":[],"city":"Blacksburg","full_address":"215 N Main St\nBlacksburg, VA 24060","latitude":37.230219,"longitude":-80.414656,"name":"DP Dough","neighborhoods":[],"open":true,"photo_url":"http://s3-media2.px.yelpcdn.com/bphoto/ojM_NXviodb7bPFwrntKTA/ms.jpg","review_count":5,"schools":["Virginia Tech"],"stars":4.0,"state":"VA","type":"business","url":"http://www.yelp.com/biz/dp-dough-blacksburg"},
{"business_id":"o-orjPn9_bi_d3CCItXs0w","categories":["Soup","Sandwiches","Restaurants"],"city":"Blacksburg","full_address":"Squires Student Center\nVirginia Tech Campus\nBlacksburg, VA 24062","latitude":37.2294,"longitude":-80.4144,"name":"Au Bon Pain","neighborhoods":[],"open":true,"photo_url":"http://media1.px.yelpcdn.com/static/201012163223336441/img/gfx/blank_biz_medium.gif","review_count":2,"schools":["Virginia Tech"],"stars":4.0,"state":"VA","type":"business","url":"http://www.yelp.com/biz/au-bon-pain-blacksburg"},
{"business_id":"Te72-fjbquQFCfPBgJ4ldQ","categories":["Cajun/Creole","American (New)","Restaurants"],"city":"Blacksburg","full_address":"205 N Main St\nBlacksburg, VA 24060","latitude":37.2299995422363,"longitude":-80.4148025512695,"name":"Boudreaux's Restaurant","neighborhoods":[],"open":true,"photo_url":"http://s3-media3.px.yelpcdn.com/bphoto/kq1ANG-O14hhXX_uNXVBwQ/ms.jpg","review_count":23,"schools":["Virginia Tech"],"stars":3.0,"state":"VA","type":"business","url":"http://www.yelp.com/biz/boudreauxs-restaurant-blacksburg"},
{"business_id":"I5dFvzPt57bb9T7z0Mp-jw","categories":["Food","Bakeries","Restaurants"],"city":"Blacksburg","full_address":"1317 S Main St\nBlacksburg, VA 24060","latitude":37.2184982299805,"longitude":-80.4019012451172,"name":"Our Daily Bread Cafe and Bakery","neighborhoods":[],"open":true,"photo_url":"http://s3-media1.px.yelpcdn.com/bphoto/YMli7d2oejmfPqQnQ7m7Lw/ms.jpg","review_count":10,"schools":["Virginia Tech"],"stars":4.0,"state":"VA","type":"business","url":"http://www.yelp.com/biz/our-daily-bread-cafe-and-bakery-blacksburg"},
{"business_id":"tJwomYMNjpd4A31rDMXMCw","categories":["Bars","Pool Halls","Nightlife","Restaurants"],"city":"Blacksburg","full_address":"220 N Main St\nBlacksburg, VA 24060","latitude":37.230156,"longitude":-80.414828,"name":"Sharkey's","neighborhoods":[],"open":true,"photo_url":"http://s3-media4.px.yelpcdn.com/bphoto/Rb5r0r7CRgmnTfA3GZI_HA/ms.jpg","review_count":24,"schools":["Virginia Tech"],"stars":3.0,"state":"VA","type":"business","url":"http://www.yelp.com/biz/sharkeys-blacksburg"},
{"business_id":"6CWCx51YbZ7ktkRSzA4ITQ","categories":["Sandwiches","Restaurants"],"city":"Blacksburg","full_address":"800 University City Blvd\nBlacksburg, VA 24060","latitude":37.2337,"longitude":-80.4324,"name":"Firehouse Subs","neighborhoods":[],"open":true,"photo_url":"http://media1.px.yelpcdn.com/static/201012163223336441/img/gfx/blank_biz_medium.gif","review_count":2,"schools":["Virginia Tech"],"stars":4.0,"state":"VA","type":"business","url":"http://www.yelp.com/biz/firehouse-subs-blacksburg"},
{"business_id":"ZFdGatpUaeb37NZRGsL_yw","categories":["Pizza","Restaurants"],"city":"Blacksburg","full_address":"1407 N Main St\nBlacksburg, VA 24060","latitude":37.2459983825684,"longitude":-80.415397644043,"name":"Roma's Pizza","neighborhoods":[],"open":true,"photo_url":"http://media1.px.yelpcdn.com/static/201012163223336441/img/gfx/blank_biz_medium.gif","review_count":7,"schools":["Virginia Tech"],"stars":4.0,"state":"VA","type":"business","url":"http://www.yelp.com/biz/romas-pizza-blacksburg"},
{"business_id":"dZwZlfR-FZkRmA5D4PtMaA","categories":["Italian","Pizza","Restaurants"],"city":"Blacksburg","full_address":"1440 S Main St\nSte 110\nBlacksburg, VA 24060","latitude":37.2162555,"longitude":-80.4010657,"name":"Sal's Italian Restaurant & Pizzeria","neighborhoods":[],"open":true,"photo_url":"http://media1.px.yelpcdn.com/static/201012163223336441/img/gfx/blank_biz_medium.gif","review_count":6,"schools":["Virginia Tech"],"stars":3.5,"state":"VA","type":"business","url":"http://www.yelp.com/biz/sals-italian-restaurant-and-pizzeria-blacksburg"},
{"business_id":"Ij5vTLLpmulfCsK64jGGxw","categories":["American (Traditional)","Restaurants"],"city":"Blacksburg","full_address":"322 N Main St\nBlacksburg, VA 24060","latitude":37.2314,"longitude":-80.4154,"name":"Hokie House","neighborhoods":[],"open":true,"photo_url":"http://s3-media4.px.yelpcdn.com/bphoto/SS71kiGtPGFSr-kpzR0X3A/ms.jpg","review_count":8,"schools":["Virginia Tech"],"stars":3.0,"state":"VA","type":"business","url":"http://www.yelp.com/biz/hokie-house-blacksburg"},
{"business_id":"3juObN8h-4AZfaxLDhPtQw","categories":["Pool Halls","Nightlife","Restaurants"],"city":"Blacksburg","full_address":"111 N Main St\nBlacksburg, VA 24060","latitude":37.2298011779785,"longitude":-80.4145965576172,"name":"Champs Sports Bar & Cafe","neighborhoods":[],"open":true,"photo_url":"http://s3-media2.px.yelpcdn.com/bphoto/v9v2bnk8bMLePIfI3BKxFA/ms.jpg","review_count":10,"schools":["Virginia Tech"],"stars":3.5,"state":"VA","type":"business","url":"http://www.yelp.com/biz/champs-sports-bar-and-cafe-blacksburg"},
{"business_id":"rApUugTXL6kg1DIosUhDUQ","categories":["Restaurants"],"city":"Blacksburg","full_address":"400 Turner St NW\nSte 101\nBlacksburg, VA 24060","latitude":37.2329215,"longitude":-80.4215915,"name":"Bud Foster's Restaurant","neighborhoods":[],"open":false,"photo_url":"http://media1.px.yelpcdn.com/static/201012163223336441/img/gfx/blank_biz_medium.gif","review_count":4,"schools":["Virginia Tech"],"stars":3.5,"state":"VA","type":"business","url":"http://www.yelp.com/biz/bud-fosters-restaurant-blacksburg"},
{"business_id":"rXGioez8wVRBwJXJoBj9LQ","categories":["Sushi Bars","Japanese","Restaurants"],"city":"Blacksburg","full_address":"860 University City Blvd\nBlacksburg, VA 24060","latitude":37.2346992492676,"longitude":-80.4338989257812,"name":"Kobe Japanese Express","neighborhoods":[],"open":true,"photo_url":"http://s3-media1.px.yelpcdn.com/bphoto/F_iQkfqO3wVuoRMRprl6ZQ/ms.jpg","review_count":20,"schools":["Virginia Tech"],"stars":4.0,"state":"VA","type":"business","url":"http://www.yelp.com/biz/kobe-japanese-express-blacksburg"},
{"business_id":"4MPACVneQtpnTbzHavn1fQ","categories":["Food","Coffee & Tea"],"city":"Blacksburg","full_address":"700 N Main St\nBlacksburg, VA 24060","latitude":37.2346000671387,"longitude":-80.4197998046875,"name":"Mill Mountain Coffee & Tea","neighborhoods":[],"open":true,"photo_url":"http://s3-media2.px.yelpcdn.com/bphoto/ievWe9eewqLyr2l8y6lvkA/ms.jpg","review_count":10,"schools":["Virginia Tech"],"stars":3.5,"state":"VA","type":"business","url":"http://www.yelp.com/biz/mill-mountain-coffee-and-tea-blacksburg"},
{"business_id":"kN6Ai2WOz8dEBC75l77iBg","categories":["Chinese","Restaurants"],"city":"Blacksburg","full_address":"1305 S Main St\nBlacksburg, VA 24060","latitude":37.2187995910645,"longitude":-80.402099609375,"name":"Double Dragon","neighborhoods":[],"open":true,"photo_url":"http://media1.px.yelpcdn.com/static/201012163223336441/img/gfx/blank_biz_medium.gif","review_count":2,"schools":["Virginia Tech"],"stars":2.5,"state":"VA","type":"business","url":"http://www.yelp.com/biz/double-dragon-blacksburg"},
{"business_id":"7ROpZOsaDK1V7Zl_2RaPTA","categories":["Hotels & Travel","Restaurants","Event Planning & Services","Hotels"],"city":"Blacksburg","full_address":"900 Prices Fork Rd\nBlacksburg, VA 24060","latitude":37.2314987182617,"longitude":-80.4322967529297,"name":"Attitudes Bar & Cafe","neighborhoods":[],"open":true,"photo_url":"http://media1.px.yelpcdn.com/static/201012163223336441/img/gfx/blank_biz_medium.gif","review_count":2,"schools":["Virginia Tech"],"stars":3.5,"state":"VA","type":"business","url":"http://www.yelp.com/biz/attitudes-bar-and-cafe-blacksburg"},
{"business_id":"a80CAB0Wa7-NzJtPRAt0ug","categories":["Ethiopian","Restaurants"],"city":"Blacksburg","full_address":"119 North Main St\nSte 103\nBlacksburg, VA 24060","latitude":37.229484,"longitude":-80.4140856,"name":"Excellent Table","neighborhoods":[],"open":true,"photo_url":"http://s3-media4.px.yelpcdn.com/bphoto/mAs3pFJy10QanMbTZOELKA/ms.jpg","review_count":5,"schools":["Virginia Tech"],"stars":4.0,"state":"VA","type":"business","url":"http://www.yelp.com/biz/excellent-table-blacksburg"},
{"business_id":"6ke_-lV12SwP0ebcGFErZA","categories":["Italian","Pizza","Restaurants"],"city":"Blacksburg","full_address":"428 N Main St\nBlacksburg, VA 24060","latitude":37.2317683,"longitude":-80.4162282,"name":"Ceritano's Ristorante","neighborhoods":[],"open":true,"photo_url":"http://media1.px.yelpcdn.com/static/201012163223336441/img/gfx/blank_biz_medium.gif","review_count":6,"schools":["Virginia Tech"],"stars":3.5,"state":"VA","type":"business","url":"http://www.yelp.com/biz/ceritanos-ristorante-blacksburg"},
{"business_id":"jZBRs1UCbylCpcTOQ5Bi3Q","categories":["Mexican","Restaurants"],"city":"blacksburg","full_address":"3703 S Main St\nblacksburg, VA 24060","latitude":37.185587,"longitude":-80.40812,"name":"Cinco De Mayo","neighborhoods":[],"open":false,"photo_url":"http://media1.px.yelpcdn.com/static/201012163223336441/img/gfx/blank_biz_medium.gif","review_count":2,"schools":["Virginia Tech"],"stars":2.0,"state":"VA","type":"business","url":"http://www.yelp.com/biz/cinco-de-mayo-blacksburg"},
{"business_id":"HaWJ-e4pm1XhF1qJyYOeeQ","categories":["Hotels & Travel","Event Planning & Services","Hotels"],"city":"Blacksburg","full_address":"205 S Main St\nBlacksburg, VA 24060","latitude":37.228701,"longitude":-80.413042,"name":"Main Street Inn Llc","neighborhoods":[],"open":true,"photo_url":"http://s3-media1.px.yelpcdn.com/bphoto/4n0qR6pWtyPHxTR_Nw2sAA/ms.jpg","review_count":3,"schools":["Virginia Tech"],"stars":3.0,"state":"VA","type":"business","url":"http://www.yelp.com/biz/main-street-inn-llc-blacksburg"},
{"business_id":"qZVNTc39d7mLqWeSFTOHIg","categories":["Food","Bakeries","Coffee & Tea"],"city":"Blacksburg","full_address":"460 Turner St NW\nSte 204\nBlacksburg, VA 24060","latitude":37.2332966,"longitude":-80.4228094,"name":"Next Door Bake Shop","neighborhoods":[],"open":true,"photo_url":"http://s3-media4.px.yelpcdn.com/bphoto/FmEAf_g955An0aPUgeQQGA/ms.jpg","review_count":4,"schools":["Virginia Tech"],"stars":4.5,"state":"VA","type":"business","url":"http://www.yelp.com/biz/next-door-bake-shop-blacksburg"},
{"business_id":"z2o5kP4SZVbsO5UCH1rP0g","categories":["Pizza","Restaurants"],"city":"Christiansburg","full_address":"210 Marshall Dr\nChristiansburg, VA 24073","latitude":37.1622882,"longitude":-80.424677,"name":"Cici's Pizza","neighborhoods":[],"open":true,"photo_url":"http://media1.px.yelpcdn.com/static/201012163223336441/img/gfx/blank_biz_medium.gif","review_count":3,"schools":["Virginia Tech"],"stars":2.5,"state":"VA","type":"business","url":"http://www.yelp.com/biz/cicis-pizza-christiansburg"},
{"business_id":"wk8EiiHeB3TFx0YCOOityA","categories":["Food","Beer, Wine & Spirits","Restaurants"],"city":"Blacksburg","full_address":"810 University City Blvd\nBlacksburg, VA 24060","latitude":37.233699798584,"longitude":-80.4332962036133,"name":"Zeppoli's","neighborhoods":[],"open":true,"photo_url":"http://media1.px.yelpcdn.com/static/201012163223336441/img/gfx/blank_biz_medium.gif","review_count":14,"schools":["Virginia Tech"],"stars":3.5,"state":"VA","type":"business","url":"http://www.yelp.com/biz/zeppolis-blacksburg"},
{"business_id":"CQDgwHALlXTgvfOd0HoH8g","categories":["Arts & Entertainment","Cinema","Performing Arts"],"city":"Blacksburg","full_address":"135 College Ave\nBlacksburg, VA 24060","latitude":37.2302296,"longitude":-80.4159763,"name":"Lyric Theatre","neighborhoods":[],"open":true,"photo_url":"http://media1.px.yelpcdn.com/static/201012163223336441/img/gfx/blank_biz_medium.gif","review_count":13,"schools":["Virginia Tech"],"stars":5.0,"state":"VA","type":"business","url":"http://www.yelp.com/biz/lyric-theatre-blacksburg"},
{"business_id":"3OmYvTrYQFwITFq4vm6Vsg","categories":["Seafood","Restaurants"],"city":"Christiansburg","full_address":"420 Peppers Ferry Rd NW\nChristiansburg, VA 24073","latitude":37.16226,"longitude":-80.43239,"name":"Bookbinder's Grill","neighborhoods":[],"open":false,"photo_url":"http://media1.px.yelpcdn.com/static/201012163223336441/img/gfx/blank_biz_medium.gif","review_count":2,"schools":["Virginia Tech"],"stars":3.5,"state":"VA","type":"business","url":"http://www.yelp.com/biz/bookbinders-grill-christiansburg"},
{"business_id":"zkmYfnGF3WilPsGiIkxYYw","categories":["Pizza","Restaurants"],"city":"Blacksburg","full_address":"432 N Main St #B\nBlacksburg, VA 24062","latitude":37.2318267822266,"longitude":-80.4162673950195,"name":"PK's Restaurant & Bar","neighborhoods":[],"open":true,"photo_url":"http://s3-media3.px.yelpcdn.com/bphoto/cboRV1ch63iMl4-QhbBl4Q/ms.jpg","review_count":8,"schools":["Virginia Tech"],"stars":3.0,"state":"VA","type":"business","url":"http://www.yelp.com/biz/pks-restaurant-and-bar-blacksburg-2"},
{"business_id":"rO-I1eS_92gzFkclW2ZvNg","categories":["Food","Bakeries","Coffee & Tea"],"city":"Blacksburg","full_address":"206 Draper Rd NW\nBlacksburg, VA 24060","latitude":37.2296981811523,"longitude":-80.4156036376953,"name":"Bollo's Cafe & Bakery","neighborhoods":[],"open":true,"photo_url":"http://s3-media4.px.yelpcdn.com/bphoto/RKOOtZ9HT1Ny2QHL66V7xQ/ms.jpg","review_count":11,"schools":["Virginia Tech"],"stars":3.5,"state":"VA","type":"business","url":"http://www.yelp.com/biz/bollos-cafe-and-bakery-blacksburg"},
{"business_id":"3ulgAMrHx6FFvDUMrLInDw","categories":["Buffets","Chinese","Restaurants"],"city":"Blacksburg","full_address":"1410 S Main St\nBlacksburg, VA 24060","latitude":37.2153614,"longitude":-80.4008022,"name":"Hokkaido Buffet","neighborhoods":[],"open":true,"photo_url":"http://s3-media2.px.yelpcdn.com/bphoto/AEA4LGq-N_F9gCBlT227mQ/ms.jpg","review_count":13,"schools":["Virginia Tech"],"stars":3.5,"state":"VA","type":"business","url":"http://www.yelp.com/biz/hokkaido-buffet-blacksburg"},
{"business_id":"nuU8Wg64xGbsyK_DaOma-w","categories":["Sandwiches","Restaurants"],"city":"Blacksburg","full_address":"112 Turner St NW\nBlacksburg, VA 24060","latitude":37.2327995300293,"longitude":-80.4182968139648,"name":"Sub Station II","neighborhoods":[],"open":true,"photo_url":"http://s3-media4.px.yelpcdn.com/bphoto/Pr9DXd9yp2m7ftmqUOc4dQ/ms.jpg","review_count":8,"schools":["Virginia Tech"],"stars":4.0,"state":"VA","type":"business","url":"http://www.yelp.com/biz/sub-station-ii-blacksburg"},
{"business_id":"__EmsZiRXiUmljbfpOqZig","categories":["Seafood","Restaurants"],"city":"Blacksburg","full_address":"213 Draper Rd SW\nBlacksburg, VA 24060","latitude":37.2283389,"longitude":-80.4142281,"name":"Awful Arthur's Seafood Co","neighborhoods":[],"open":true,"photo_url":"http://media1.px.yelpcdn.com/static/201012163223336441/img/gfx/blank_biz_medium.gif","review_count":9,"schools":["Virginia Tech"],"stars":2.5,"state":"VA","type":"business","url":"http://www.yelp.com/biz/awful-arthurs-seafood-co-blacksburg"},
{"business_id":"5D2grc_hZGoCt4UNncJzVQ","categories":["Italian","Restaurants"],"city":"Christiansburg","full_address":"452 Peppers Ferry Rd\nChristiansburg, VA 24073","latitude":37.1622239,"longitude":-80.432375,"name":"Mamma Concetta","neighborhoods":[],"open":true,"photo_url":"http://s3-media3.px.yelpcdn.com/bphoto/IuUvZoHawSu7ZrLc8Gw1tg/ms.jpg","review_count":2,"schools":["Virginia Tech"],"stars":2.5,"state":"VA","type":"business","url":"http://www.yelp.com/biz/mamma-concetta-christiansburg"},
{"business_id":"F_ofTZiczPkYZ93JAE3RRQ","categories":["Thai","Restaurants"],"city":"Blacksburg","full_address":"104 Jackson St NE\nBlacksburg, VA 24060","latitude":37.2303009,"longitude":-80.4141098,"name":"Cafe De Bangkok","neighborhoods":[],"open":true,"photo_url":"http://s3-media2.px.yelpcdn.com/bphoto/j4qCR6n2RcR5ppa9m4i1iA/ms.jpg","review_count":13,"schools":["Virginia Tech"],"stars":2.5,"state":"VA","type":"business","url":"http://www.yelp.com/biz/cafe-de-bangkok-blacksburg"},
{"business_id":"7QNzak_Hn1xqq2fcRFnljg","categories":["Colleges & Universities","Education"],"city":"Blacksburg","full_address":"Blacksburg, VA 24061","latitude":37.2261949,"longitude":-80.4340429,"name":"Virginia Polytechnic Institute and State University","neighborhoods":[],"open":true,"photo_url":"http://s3-media3.px.yelpcdn.com/bphoto/hkDzkCxJZ5arOJDozUjXGg/ms.jpg","review_count":3,"schools":["Virginia Tech"],"stars":5.0,"state":"VA","type":"business","url":"http://www.yelp.com/biz/virginia-polytechnic-institute-and-state-university-blacksburg"},
{"business_id":"YKWQbP6B13LT60j9tEEtIg","categories":["Sushi Bars","Restaurants"],"city":"Blacksburg","full_address":"109 College Ave\nBlacksburg, VA 24060","latitude":37.2304,"longitude":-80.4155,"name":"Green's Grill & Sushi Bar","neighborhoods":[],"open":true,"photo_url":"http://s3-media1.px.yelpcdn.com/bphoto/HP2AxhO6URr6wEbgqY50Rg/ms.jpg","review_count":10,"schools":["Virginia Tech"],"stars":3.5,"state":"VA","type":"business","url":"http://www.yelp.com/biz/greens-grill-and-sushi-bar-blacksburg"},
{"business_id":"nCWZR9NRc2grAwP1jq33PA","categories":["Bars","Nightlife"],"city":"Blacksburg","full_address":"212 Draper Rd\nBlacksburg, VA 24060","latitude":37.2279932,"longitude":-80.4138987,"name":"The Rivermill","neighborhoods":[],"open":true,"photo_url":"http://s3-media3.px.yelpcdn.com/bphoto/hmNEr7QQxrZqVU76qQaz4A/ms.jpg","review_count":22,"schools":["Virginia Tech"],"stars":4.0,"state":"VA","type":"business","url":"http://www.yelp.com/biz/the-rivermill-blacksburg"},
{"business_id":"l1sY1Bp-ICeb8QduHjIjtA","categories":["Day Spas","Massage","Beauty and Spas"],"city":"Blacksburg","full_address":"1711 N Main St\nBlacksburg, VA 24060","latitude":37.2528106,"longitude":-80.4109416,"name":"Classic Body Image Salon and Day Spa","neighborhoods":[],"open":false,"photo_url":"http://media1.px.yelpcdn.com/static/201012163223336441/img/gfx/blank_biz_medium.gif","review_count":2,"schools":["Virginia Tech"],"stars":2.5,"state":"VA","type":"business","url":"http://www.yelp.com/biz/classic-body-image-salon-and-day-spa-blacksburg"},
{"business_id":"cbdvRIA_7WnchChOyV-2Hg","categories":["Tires","Automotive"],"city":"Christiansburg","full_address":"400 Peppers Ferry Rd NW\nChristiansburg, VA 24073","latitude":37.1623001098633,"longitude":-80.432502746582,"name":"Merchant's Tire & Auto Centers","neighborhoods":[],"open":true,"photo_url":"http://media1.px.yelpcdn.com/static/201012163223336441/img/gfx/blank_biz_medium.gif","review_count":2,"schools":["Virginia Tech"],"stars":1.0,"state":"VA","type":"business","url":"http://www.yelp.com/biz/merchants-tire-and-auto-centers-christiansburg"},
{"business_id":"FvaoSQEZdUJXi3A7gno1Xg","categories":["Arts & Crafts","Flowers & Gifts","Shopping","Costumes","Florists"],"city":"Blacksburg","full_address":"801 N Main St\nBlacksburg, VA 24060","latitude":37.2369003295898,"longitude":-80.4213027954102,"name":"D'rose","neighborhoods":[],"open":true,"photo_url":"http://media1.px.yelpcdn.com/static/201012163223336441/img/gfx/blank_biz_medium.gif","review_count":2,"schools":["Virginia Tech"],"stars":4.0,"state":"VA","type":"business","url":"http://www.yelp.com/biz/d-rose-blacksburg"},
{"business_id":"voXoIsapBR30q_7PgxVeAA","categories":["Cajun/Creole","Italian","Restaurants"],"city":"Blacksburg","full_address":"207 S Main St\nBlacksburg, VA 24060","latitude":37.2281068,"longitude":-80.4125301,"name":"Backstreets Restaurant","neighborhoods":[],"open":true,"photo_url":"http://media1.px.yelpcdn.com/static/201012163223336441/img/gfx/blank_biz_medium.gif","review_count":11,"schools":["Virginia Tech"],"stars":3.0,"state":"VA","type":"business","url":"http://www.yelp.com/biz/backstreets-restaurant-blacksburg"},
{"business_id":"-QNnL7C_z7NxiCarq3VZTQ","categories":["Greek","Mediterranean","Restaurants"],"city":"Blacksburg","full_address":"201 College Ave\nBlacksburg, VA 24060","latitude":37.2299,"longitude":-80.4163,"name":"Souvlaki","neighborhoods":[],"open":true,"photo_url":"http://s3-media3.px.yelpcdn.com/bphoto/an5WaKUAd4Om6nVw6nJzuw/ms.jpg","review_count":27,"schools":["Virginia Tech"],"stars":4.0,"state":"VA","type":"business","url":"http://www.yelp.com/biz/souvlaki-blacksburg-2"},
{"business_id":"Y_HIPFeBEb1V8_eOrZt6wQ","categories":["Food","Specialty Food","Health Markets"],"city":"Blacksburg","full_address":"708 N Main St\nBlacksburg, VA 24060","latitude":37.2353,"longitude":-80.4202,"name":"Eats Natural Foods","neighborhoods":[],"open":true,"photo_url":"http://s3-media2.px.yelpcdn.com/bphoto/cwnVwlk2AC3s-et1evM3Dw/ms.jpg","review_count":4,"schools":["Virginia Tech"],"stars":4.5,"state":"VA","type":"business","url":"http://www.yelp.com/biz/eats-natural-foods-blacksburg"},
{"business_id":"tpaVWvFqb08iv4_RgzDkjQ","categories":["Sushi Bars","Restaurants"],"city":"Blacksburg","full_address":"1560 South Main Street\nSuite 116\nBlacksburg, VA 24060","latitude":37.2138186,"longitude":-80.4004023,"name":"Sake House","neighborhoods":[],"open":true,"photo_url":"http://media1.px.yelpcdn.com/static/201012163223336441/img/gfx/blank_biz_medium.gif","review_count":12,"schools":["Virginia Tech"],"stars":3.5,"state":"VA","type":"business","url":"http://www.yelp.com/biz/sake-house-blacksburg"},
{"business_id":"ncZgdBYg2gzGeSLJb2xM0Q","categories":["Buffets","Restaurants"],"city":"Blacksburg","full_address":"1200 S Main St\nBlacksburg, VA 24060","latitude":37.2194609,"longitude":-80.4031586,"name":"Beijing Buffet","neighborhoods":[],"open":true,"photo_url":"http://media1.px.yelpcdn.com/static/201012163223336441/img/gfx/blank_biz_medium.gif","review_count":6,"schools":["Virginia Tech"],"stars":3.0,"state":"VA","type":"business","url":"http://www.yelp.com/biz/beijing-buffet-blacksburg"},
{"business_id":"mAw6QGWaX2nb50P_M6xZpQ","categories":["Restaurants"],"city":"Christiansburg","full_address":"2575 Market St\nChristiansburg, VA 24073","latitude":37.1632995605469,"longitude":-80.4216995239258,"name":"El Gran Rodeo","neighborhoods":[],"open":true,"photo_url":"http://media1.px.yelpcdn.com/static/201012163223336441/img/gfx/blank_biz_medium.gif","review_count":5,"schools":["Virginia Tech"],"stars":4.0,"state":"VA","type":"business","url":"http://www.yelp.com/biz/el-gran-rodeo-christiansburg"},
{"business_id":"J0_BwdMFpqTSlmc4TQhjsg","categories":["Day Spas","Hair Removal","Nail Salons","Beauty and Spas"],"city":"Christiansburg","full_address":"360 Arbor Dr Ste D\nChristiansburg, VA 24073","latitude":37.168229,"longitude":-80.417791,"name":"Meredith's Salon","neighborhoods":[],"open":true,"photo_url":"http://media1.px.yelpcdn.com/static/201012163223336441/img/gfx/blank_biz_medium.gif","review_count":2,"schools":["Virginia Tech"],"stars":5.0,"state":"VA","type":"business","url":"http://www.yelp.com/biz/merediths-salon-christiansburg"},
{"business_id":"0MlzKv-ExET2wV73hr-fsg","categories":["Food","Grocery","Shopping","Drugstores"],"city":"Blacksburg","full_address":"1322 S Main St\nBlacksburg, VA 24060","latitude":37.2183990478516,"longitude":-80.4022979736328,"name":"Kroger","neighborhoods":[],"open":true,"photo_url":"http://s3-media1.px.yelpcdn.com/bphoto/zvraYMohKtpqnlNBefzMWA/ms.jpg","review_count":7,"schools":["Virginia Tech"],"stars":4.0,"state":"VA","type":"business","url":"http://www.yelp.com/biz/kroger-blacksburg"},
{"business_id":"6MJ2tngko89gaxOIqVBaRQ","categories":["Health and Medical","Chiropractors"],"city":"Blacksburg","full_address":"401 S Main St\nSte 104\nBlacksburg, VA 24060","latitude":37.2272452,"longitude":-80.4117236,"name":"South Main Chiropractic","neighborhoods":[],"open":true,"photo_url":"http://s3-media2.px.yelpcdn.com/bphoto/oabuJ657wgAA4dmck_yD0w/ms.jpg","review_count":2,"schools":["Virginia Tech"],"stars":4.0,"state":"VA","type":"business","url":"http://www.yelp.com/biz/south-main-chiropractic-blacksburg"},
{"business_id":"5s4ajRDWXyP-kGm2E6ZFXw","categories":["Hotels & Travel","Event Planning & Services","Hotels"],"city":"Christiansburg","full_address":"135 Ponderosa Dr\nChristiansburg, VA 24073","latitude":37.1698,"longitude":-80.4177,"name":"Microtel Inn & Suites","neighborhoods":[],"open":true,"photo_url":"http://media1.px.yelpcdn.com/static/201012163223336441/img/gfx/blank_biz_medium.gif","review_count":2,"schools":["Virginia Tech"],"stars":3.0,"state":"VA","type":"business","url":"http://www.yelp.com/biz/microtel-inn-and-suites-christiansburg"},
{"business_id":"thlQuACT7g1GQLA-45pfkw","categories":["Chinese","Restaurants"],"city":"Blacksburg","full_address":"1409 N Main St\nBlacksburg, VA 24060","latitude":37.2461013793945,"longitude":-80.415397644043,"name":"Chinese Kitchen","neighborhoods":[],"open":true,"photo_url":"http://s3-media4.px.yelpcdn.com/bphoto/NRxw4KVhgK2R4VLo5FLS3g/ms.jpg","review_count":18,"schools":["Virginia Tech"],"stars":4.5,"state":"VA","type":"business","url":"http://www.yelp.com/biz/chinese-kitchen-blacksburg"},
{"business_id":"I_7cQmHxx6LokP9yr7Fx-w","categories":["Arts & Entertainment","Cinema"],"city":"Christiansburg","full_address":"New River Valley Mall\n110 New River Rd\nChristiansburg, VA 24068","latitude":37.1656019,"longitude":-80.4234329,"name":"Regal New River Valley Stadium 14","neighborhoods":[],"open":true,"photo_url":"http://media1.px.yelpcdn.com/static/201012163223336441/img/gfx/blank_biz_medium.gif","review_count":5,"schools":["Virginia Tech"],"stars":4.0,"state":"VA","type":"business","url":"http://www.yelp.com/biz/regal-new-river-valley-stadium-14-christiansburg"},
{"business_id":"T6eavqkeaIrv4giuCeXTPw","categories":["Chinese","Restaurants"],"city":"Blacksburg","full_address":"401 Draper Rd SW\nBlacksburg, VA 24060","latitude":37.2266006469727,"longitude":-80.4121017456055,"name":"China Inn Restaurant","neighborhoods":[],"open":true,"photo_url":"http://media1.px.yelpcdn.com/static/201012163223336441/img/gfx/blank_biz_medium.gif","review_count":4,"schools":["Virginia Tech"],"stars":4.0,"state":"VA","type":"business","url":"http://www.yelp.com/biz/china-inn-restaurant-blacksburg"},
{"business_id":"cv1AfDz53DzWftlHh-58pg","categories":["Sushi Bars","Restaurants"],"city":"Blacksburg","full_address":"126 Jackson St NW\nBlacksburg, VA 24060","latitude":37.229726,"longitude":-80.414834,"name":"Poor Billy's Sushi Restaurant","neighborhoods":[],"open":true,"photo_url":"http://media1.px.yelpcdn.com/static/201012163223336441/img/gfx/blank_biz_medium.gif","review_count":2,"schools":["Virginia Tech"],"stars":1.5,"state":"VA","type":"business","url":"http://www.yelp.com/biz/poor-billys-sushi-restaurant-blacksburg"},
{"business_id":"aJMJiCDrj1RsNxWlVTe_fA","categories":["Steakhouses","Restaurants"],"city":"Christiansburg","full_address":"295 Peppers Ferry Rd NE\nChristiansburg, VA 24073","latitude":37.1651000976562,"longitude":-80.4141006469727,"name":"Outback Steakhouse","neighborhoods":[],"open":true,"photo_url":"http://s3-media4.px.yelpcdn.com/bphoto/VbOGfw2qPpRCto_-jQVL-g/ms.jpg","review_count":4,"schools":["Virginia Tech"],"stars":3.5,"state":"VA","type":"business","url":"http://www.yelp.com/biz/outback-steakhouse-christiansburg"},
{"business_id":"b1tsu3P4yvzMJA10oHJ0Tw","categories":["Tires","Automotive","Auto Repair"],"city":"Blacksburg","full_address":"1810 S Main St\nBlacksburg, VA 24060","latitude":37.2089004516602,"longitude":-80.3994979858398,"name":"South Main Auto Service","neighborhoods":[],"open":true,"photo_url":"http://s3-media1.px.yelpcdn.com/bphoto/M5gXRFAJjsIpYTWdILg3pg/ms.jpg","review_count":2,"schools":["Virginia Tech"],"stars":3.5,"state":"VA","type":"business","url":"http://www.yelp.com/biz/south-main-auto-service-blacksburg"},
{"business_id":"ZhwZCCBVmzwumpO8M27gIg","categories":["Videos and Video Game Rental","Books, Mags, Music and Video","Shopping","Music & DVDs"],"city":"Blacksburg","full_address":"239 N Main St\nBlacksburg, VA 24060","latitude":37.2304992675781,"longitude":-80.4152984619141,"name":"Crossroads Cd's","neighborhoods":[],"open":true,"photo_url":"http://media1.px.yelpcdn.com/static/201012163223336441/img/gfx/blank_biz_medium.gif","review_count":2,"schools":["Virginia Tech"],"stars":4.5,"state":"VA","type":"business","url":"http://www.yelp.com/biz/crossroads-cds-blacksburg"},
{"business_id":"Rhzx-LNOm4EU5Gi2IO0J1g","categories":["Pizza","Restaurants"],"city":"Blacksburg","full_address":"890 Kabrich St\nBlacksburg, VA 24060","latitude":37.2372,"longitude":-80.422,"name":"The Gobbler Restaurant & Pub","neighborhoods":[],"open":false,"photo_url":"http://s3-media2.px.yelpcdn.com/bphoto/WyGXvP3wJU5RyDGjufJ7Kw/ms.jpg","review_count":3,"schools":["Virginia Tech"],"stars":3.5,"state":"VA","type":"business","url":"http://www.yelp.com/biz/the-gobbler-restaurant-and-pub-blacksburg"},
{"business_id":"HAXTUHm3RFucIbNZSpIU3A","categories":["Wine Bars","Bars","Nightlife","Restaurants"],"city":"Blacksburg","full_address":"622 N Main St\nBlacksburg, VA 24060","latitude":37.2344872,"longitude":-80.4195237,"name":"622 North","neighborhoods":[],"open":true,"photo_url":"http://s3-media3.px.yelpcdn.com/bphoto/4kytRGpEFjSkj75tn5TI5w/ms.jpg","review_count":14,"schools":["Virginia Tech"],"stars":4.0,"state":"VA","type":"business","url":"http://www.yelp.com/biz/622-north-blacksburg"},
{"business_id":"3UbkuKOjZ8YrWdAZx94-ww","categories":["Hair Salons","Beauty and Spas"],"city":"Blacksburg","full_address":"107 N Main St\nBlacksburg, VA 24060","latitude":37.2296981811523,"longitude":-80.4144973754883,"name":"Lia's Hair Styling","neighborhoods":[],"open":true,"photo_url":"http://media1.px.yelpcdn.com/static/201012163223336441/img/gfx/blank_biz_medium.gif","review_count":2,"schools":["Virginia Tech"],"stars":4.0,"state":"VA","type":"business","url":"http://www.yelp.com/biz/lias-hair-styling-blacksburg"},
{"business_id":"nXXfB3-tIIZczK4byP8JWQ","categories":["Burgers","American (Traditional)","Restaurants"],"city":"Blacksburg","full_address":"418 N Main St\nBlacksburg, VA 24060","latitude":37.2317008972168,"longitude":-80.415901184082,"name":"Mike's Grill","neighborhoods":[],"open":true,"photo_url":"http://media1.px.yelpcdn.com/static/201012163223336441/img/gfx/blank_biz_medium.gif","review_count":15,"schools":["Virginia Tech"],"stars":3.5,"state":"VA","type":"business","url":"http://www.yelp.com/biz/mikes-grill-blacksburg"},
{"business_id":"I_CFI8tpJHkGthEet3v3WA","categories":["Restaurants"],"city":"Blacksburg","full_address":"112 N Main St\nBlacksburg, VA 24060","latitude":37.2294998168945,"longitude":-80.4138031005859,"name":"London Underground Pub Ltd","neighborhoods":[],"open":true,"photo_url":"http://s3-media3.px.yelpcdn.com/bphoto/BcpozthxuUruYeEykektOA/ms.jpg","review_count":6,"schools":["Virginia Tech"],"stars":3.5,"state":"VA","type":"business","url":"http://www.yelp.com/biz/london-underground-pub-ltd-blacksburg"},
{"business_id":"8gd212vWAszoQ4P40uBlmQ","categories":["Flowers & Gifts","Shopping"],"city":"Blacksburg","full_address":"101 S Main St\nBlacksburg, VA 24060","latitude":37.2294,"longitude":-80.4136,"name":"Xanadu Gifts","neighborhoods":[],"open":true,"photo_url":"http://media1.px.yelpcdn.com/static/201012163223336441/img/gfx/blank_biz_medium.gif","review_count":3,"schools":["Virginia Tech"],"stars":4.5,"state":"VA","type":"business","url":"http://www.yelp.com/biz/xanadu-gifts-blacksburg"},
{"business_id":"PMduIGhezzKOdEsjEX4llg","categories":["American (New)","Restaurants"],"city":"Blacksburg","full_address":"880 University City Blvd\nBlacksburg, VA 24060","latitude":37.2357895,"longitude":-80.4340357,"name":"Five Guys Burger and Fries","neighborhoods":[],"open":true,"photo_url":"http://media1.px.yelpcdn.com/static/201012163223336441/img/gfx/blank_biz_medium.gif","review_count":5,"schools":["Virginia Tech"],"stars":4.0,"state":"VA","type":"business","url":"http://www.yelp.com/biz/five-guys-burger-and-fries-blacksburg"},
{"business_id":"vJFplxoIJO2MLpodACW7Vw","categories":["American (Traditional)","Steakhouses","Restaurants"],"city":"Christiansbrg","full_address":"150 Laurel St NE\nChristiansbrg, VA 24073","latitude":37.1625192,"longitude":-80.4204164,"name":"O'Charley's","neighborhoods":[],"open":true,"photo_url":"http://media1.px.yelpcdn.com/static/201012163223336441/img/gfx/blank_biz_medium.gif","review_count":6,"schools":["Virginia Tech"],"stars":2.5,"state":"VA","type":"business","url":"http://www.yelp.com/biz/o-charleys-christiansbrg"},
{"business_id":"Vd9gGFmHfsfQE9Ytxnr85Q","categories":["Department Stores","Grocery","Fashion","Shopping","Food","Mobile Phones"],"city":"Christiansburg","full_address":"2400 N Franklin St\nChristiansburg, VA 24073","latitude":37.1606,"longitude":-80.4255,"name":"Walmart","neighborhoods":[],"open":true,"photo_url":"http://s3-media2.px.yelpcdn.com/bphoto/4LcV-UzP5fJqVr5Zlt699w/ms.jpg","review_count":3,"schools":["Virginia Tech"],"stars":2.5,"state":"VA","type":"business","url":"http://www.yelp.com/biz/walmart-christiansburg"},
{"business_id":"2C7Gyve_y8WRiJmB28k38g","categories":["Seafood","Restaurants"],"city":"Christiansburg","full_address":"75 Peppers Ferry Road\nChristiansburg, VA 24073","latitude":37.1639122,"longitude":-80.4219716,"name":"Red Lobster","neighborhoods":[],"open":true,"photo_url":"http://s3-media2.px.yelpcdn.com/bphoto/qD0-Gsreu3Py8wJa2PQ0Ag/ms.jpg","review_count":3,"schools":["Virginia Tech"],"stars":3.5,"state":"VA","type":"business","url":"http://www.yelp.com/biz/red-lobster-christiansburg"},
{"business_id":"lE_jefQ2F9PSjtNmNTSFIA","categories":["Steakhouses","Restaurants"],"city":"Christiansburg","full_address":"285 Ridinger St\nChristiansburg, VA 24073","latitude":37.1535,"longitude":-80.4209,"name":"The Farmhouse","neighborhoods":[],"open":true,"photo_url":"http://media1.px.yelpcdn.com/static/201012163223336441/img/gfx/blank_biz_medium.gif","review_count":9,"schools":["Virginia Tech"],"stars":2.0,"state":"VA","type":"business","url":"http://www.yelp.com/biz/the-farmhouse-christiansburg"},
{"business_id":"K4Sq3cz0-73HWS14K6I6Ng","categories":["Mexican","Restaurants"],"city":"Blacksburg","full_address":"623 N Main St\nBlacksburg, VA 24060","latitude":37.233699798584,"longitude":-80.4188003540039,"name":"El Rodeo","neighborhoods":[],"open":true,"photo_url":"http://s3-media3.px.yelpcdn.com/bphoto/kylcMs5zEkw0DYoNxpn68g/ms.jpg","review_count":21,"schools":["Virginia Tech"],"stars":3.0,"state":"VA","type":"business","url":"http://www.yelp.com/biz/el-rodeo-blacksburg"},
{"business_id":"ZmABtfx5BCtz1BWTGt0sWA","categories":["Active Life","Sporting Goods","Bikes","Shopping","Bike Rentals"],"city":"Blacksburg","full_address":"424 N Main St Frnt\nBlacksburg, VA 24060","latitude":37.2317008972168,"longitude":-80.4160995483398,"name":"Hokie Spokes","neighborhoods":[],"open":true,"photo_url":"http://s3-media3.px.yelpcdn.com/bphoto/sjIO3J9rbCHtzxjMkNHUxA/ms.jpg","review_count":4,"schools":["Virginia Tech"],"stars":3.0,"state":"VA","type":"business","url":"http://www.yelp.com/biz/hokie-spokes-blacksburg"},
{"business_id":"nbJSDQDMPopbVf6ASB8a5w","categories":["American (Traditional)","Steakhouses","Restaurants"],"city":"Christiansburg","full_address":"100 Bradley Dr\nChristiansburg, VA 24073","latitude":37.1661987304688,"longitude":-80.4360961914062,"name":"Texas Roadhouse","neighborhoods":[],"open":true,"photo_url":"http://media1.px.yelpcdn.com/static/201012163223336441/img/gfx/blank_biz_medium.gif","review_count":4,"schools":["Virginia Tech"],"stars":4.0,"state":"VA","type":"business","url":"http://www.yelp.com/biz/texas-roadhouse-christiansburg"},
{"business_id":"5ydvKUok_yX7dBHbpluuRg","categories":["Sandwiches","Restaurants"],"city":"Blacksburg","full_address":"211 Draper Rd NW\nBlacksburg, VA 24060","latitude":37.2295989990234,"longitude":-80.4158020019531,"name":"She-Sha","neighborhoods":[],"open":true,"photo_url":"http://s3-media2.px.yelpcdn.com/bphoto/kC-rL99aWEZyUIevKw7D-w/ms.jpg","review_count":5,"schools":["Virginia Tech"],"stars":4.0,"state":"VA","type":"business","url":"http://www.yelp.com/biz/she-sha-blacksburg"},
{"business_id":"rA0zgy3m2Xdb26Sk_5BK3w","categories":["Italian","Restaurants"],"city":"Christiansburg","full_address":"105 Laurel St\nChristiansburg, VA 24073","latitude":37.162899017334,"longitude":-80.4223022460938,"name":"Fazoli's","neighborhoods":[],"open":true,"photo_url":"http://media1.px.yelpcdn.com/static/201012163223336441/img/gfx/blank_biz_medium.gif","review_count":2,"schools":["Virginia Tech"],"stars":3.5,"state":"VA","type":"business","url":"http://www.yelp.com/biz/fazolis-christiansburg"},
{"business_id":"cE96KgmjaqZaraGOIVaHJw","categories":["Bars","American (Traditional)","Nightlife","Restaurants"],"city":"Christiansburg","full_address":"2790 Market St\nChristiansburg, VA 24073","latitude":37.1671355,"longitude":-80.4211923,"name":"Applebee's Neighborhood Grill & Bar","neighborhoods":[],"open":true,"photo_url":"http://media1.px.yelpcdn.com/static/201012163223336441/img/gfx/blank_biz_medium.gif","review_count":2,"schools":["Virginia Tech"],"stars":1.5,"state":"VA","type":"business","url":"http://www.yelp.com/biz/applebees-neighborhood-grill-and-bar-christiansburg"},
{"business_id":"X7SaMeMdYa76zmavVc2YUA","categories":["Bars","American (Traditional)","Nightlife","Restaurants"],"city":"Blacksburg","full_address":"211 Prices Fork Rd\nSte 200\nBlacksburg, VA 24060","latitude":37.234559,"longitude":-80.4213122,"name":"Buffalo Wild Wings Grill & Bar","neighborhoods":[],"open":true,"photo_url":"http://s3-media2.px.yelpcdn.com/bphoto/co6KVKEEdCFhx7O37sCTkA/ms.jpg","review_count":10,"schools":["Virginia Tech"],"stars":3.5,"state":"VA","type":"business","url":"http://www.yelp.com/biz/buffalo-wild-wings-grill-and-bar-blacksburg"},
{"business_id":"92PznvJFnyw54j5LeQqNWA","categories":["American (Traditional)","Restaurants"],"city":"Blacksburg","full_address":"212 Draper Rd NW\nBlacksburg, VA 24060","latitude":37.2299003601074,"longitude":-80.415901184082,"name":"River Mill","neighborhoods":[],"open":true,"photo_url":"http://media1.px.yelpcdn.com/static/201012163223336441/img/gfx/blank_biz_medium.gif","review_count":3,"schools":["Virginia Tech"],"stars":4.0,"state":"VA","type":"business","url":"http://www.yelp.com/biz/river-mill-blacksburg"},
{"business_id":"w8Oc-X_JRGZjZsfRd_Qxsg","categories":["Hotels & Travel","Bed & Breakfast","Event Planning & Services","Hotels"],"city":"Blacksburg","full_address":"401 Clay St SW\nBlacksburg, VA 24060","latitude":37.2249984741211,"longitude":-80.4149017333984,"name":"Clay Corner Inn","neighborhoods":[],"open":true,"photo_url":"http://s3-media4.px.yelpcdn.com/bphoto/mdopIlrdVTE9vA4PgT7qmA/ms.jpg","review_count":2,"schools":["Virginia Tech"],"stars":3.0,"state":"VA","type":"business","url":"http://www.yelp.com/biz/clay-corner-inn-blacksburg"},
{"business_id":"GBC4DyQOspHcFnDECKF4ig","categories":["Department Stores","Fashion","Shopping"],"city":"Christiansburg","full_address":"2705 Market St\nChristiansburg, VA 24073","latitude":37.1650009155273,"longitude":-80.4229965209961,"name":"Wal Mart","neighborhoods":[],"open":true,"photo_url":"http://media1.px.yelpcdn.com/static/201012163223336441/img/gfx/blank_biz_medium.gif","review_count":3,"schools":["Virginia Tech"],"stars":2.5,"state":"VA","type":"business","url":"http://www.yelp.com/biz/wal-mart-christiansburg"},
{"business_id":"5zyibT__dkE21sAyLb1qvA","categories":["Burgers","Sandwiches","Restaurants"],"city":"Blacksburg","full_address":"1201 S Main St\nBlacksburg, VA 24060","latitude":37.219136,"longitude":-80.4025481,"name":"Lefty's Main Street Grille","neighborhoods":[],"open":true,"photo_url":"http://media1.px.yelpcdn.com/static/201012163223336441/img/gfx/blank_biz_medium.gif","review_count":15,"schools":["Virginia Tech"],"stars":3.5,"state":"VA","type":"business","url":"http://www.yelp.com/biz/leftys-main-street-grille-blacksburg"},
{"business_id":"FRo88VsGxAcW2rCy4L_U6A","categories":["Active Life","Yoga","Fitness & Instruction"],"city":"Christiansburg","full_address":"436 Peppers Ferry Rd\nChristiansburg, VA 24073","latitude":37.1621683,"longitude":-80.4320462,"name":"Omkarra","neighborhoods":[],"open":true,"photo_url":"http://s3-media1.px.yelpcdn.com/bphoto/aR3CgiTvjvgj7wL_W2UK_g/ms.jpg","review_count":2,"schools":["Virginia Tech"],"stars":5.0,"state":"VA","type":"business","url":"http://www.yelp.com/biz/omkarra-christiansburg"},
{"business_id":"hlIwpc2gvIljc0YaqBJDNg","categories":["Hair Salons","Nail Salons","Hair Removal","Beauty and Spas"],"city":"Blacksburg","full_address":"211 Prices Fork Rd\nSuite 100\nBlacksburg, VA 24060","latitude":37.2345453,"longitude":-80.4212962,"name":"Tivon Salon & Spa","neighborhoods":[],"open":true,"photo_url":"http://media1.px.yelpcdn.com/static/201012163223336441/img/gfx/blank_biz_medium.gif","review_count":5,"schools":["Virginia Tech"],"stars":4.0,"state":"VA","type":"business","url":"http://www.yelp.com/biz/tivon-salon-and-spa-blacksburg"},
{"business_id":"q4a9_hphM1zrmYZDi6lAcg","categories":["Breakfast & Brunch","American (Traditional)","Diners","Restaurants"],"city":"Blacksburg","full_address":"221 N Main St\nBlacksburg, VA 24060","latitude":37.2304381,"longitude":-80.4150998,"name":"Joe's Diner","neighborhoods":[],"open":true,"photo_url":"http://s3-media1.px.yelpcdn.com/bphoto/U5Hsn-ZsUeiOvI_h6yRk4g/ms.jpg","review_count":4,"schools":["Virginia Tech"],"stars":3.5,"state":"VA","type":"business","url":"http://www.yelp.com/biz/joes-diner-blacksburg"},
{"business_id":"7GSobyijoZeDKWGLUOsXgA","categories":["Pets","Pet Stores"],"city":"Blacksburg","full_address":"1531 North Main St\nBlacksburg, VA 24060","latitude":37.2518,"longitude":-80.412,"name":"Kibbles On Main","neighborhoods":[],"open":true,"photo_url":"http://media1.px.yelpcdn.com/static/201012163223336441/img/gfx/blank_biz_medium.gif","review_count":3,"schools":["Virginia Tech"],"stars":5.0,"state":"VA","type":"business","url":"http://www.yelp.com/biz/kibbles-on-main-blacksburg"},
{"business_id":"vpxUqSMqPJyhTisCDSG1_Q","categories":["Mediterranean","Restaurants"],"city":"Blacksburg","full_address":"235 N Main St\nBlacksburg, VA 24060","latitude":37.230462,"longitude":-80.4151236,"name":"Pita Vera","neighborhoods":[],"open":true,"photo_url":"http://s3-media3.px.yelpcdn.com/bphoto/gKvzJaGSgwFZJzNdxcc-WA/ms.jpg","review_count":18,"schools":["Virginia Tech"],"stars":3.5,"state":"VA","type":"business","url":"http://www.yelp.com/biz/pita-vera-blacksburg"},
{"business_id":"SIJy_CroQ6dmc8wQDqM5hg","categories":["Pizza","Sandwiches","Restaurants"],"city":"Christiansburg","full_address":"2767 Market St\nChristiansburg, VA 24073","latitude":37.1672798,"longitude":-80.4210952,"name":"Sub Shack","neighborhoods":[],"open":true,"photo_url":"http://media1.px.yelpcdn.com/static/201012163223336441/img/gfx/blank_biz_medium.gif","review_count":2,"schools":["Virginia Tech"],"stars":3.5,"state":"VA","type":"business","url":"http://www.yelp.com/biz/sub-shack-christiansburg"},
{"business_id":"zVrWseVuOpMapq_Lq8H6_w","categories":["Nail Salons","Beauty and Spas"],"city":"Blacksburg","full_address":"860 University City Blvd\nBlacksburg, VA 24060","latitude":37.2346992492676,"longitude":-80.4338989257812,"name":"Top Nail","neighborhoods":[],"open":true,"photo_url":"http://s3-media2.px.yelpcdn.com/bphoto/rvd1oRZfaAl4y6OmzaHv2g/ms.jpg","review_count":4,"schools":["Virginia Tech"],"stars":3.5,"state":"VA","type":"business","url":"http://www.yelp.com/biz/top-nail-blacksburg"},
{"business_id":"FVATXXTvTht2QsF68jbaVQ","categories":["Food","Grocery"],"city":"Blacksburg","full_address":"1413 N Main St\nBlacksburg, VA 24060","latitude":37.2461013793945,"longitude":-80.415397644043,"name":"Food Lion","neighborhoods":[],"open":true,"photo_url":"http://s3-media3.px.yelpcdn.com/bphoto/QNU8dZocZl9UuCjyds9okQ/ms.jpg","review_count":3,"schools":["Virginia Tech"],"stars":3.0,"state":"VA","type":"business","url":"http://www.yelp.com/biz/food-lion-blacksburg-2"},
{"business_id":"hWoT61c8id5vIsxlP618nQ","categories":["American (Traditional)","Restaurants"],"city":"Blacksburg","full_address":"217 College Ave\nBlacksburg, VA 24060","latitude":37.2291984558105,"longitude":-80.4173965454102,"name":"Top of the Stairs","neighborhoods":[],"open":true,"photo_url":"http://s3-media2.px.yelpcdn.com/bphoto/dGSMHNVekNzAlhDS01mVaQ/ms.jpg","review_count":11,"schools":["Virginia Tech"],"stars":2.5,"state":"VA","type":"business","url":"http://www.yelp.com/biz/top-of-the-stairs-blacksburg"},
{"business_id":"v070pCAUGi1NBwD7_Jijdg","categories":["Mexican","Restaurants"],"city":"Christiansburg","full_address":"700 New River Rd\nChristiansburg, VA 24073","latitude":37.164126,"longitude":-80.429454,"name":"Cinco De Mayo Resturant","neighborhoods":[],"open":true,"photo_url":"http://media1.px.yelpcdn.com/static/201012163223336441/img/gfx/blank_biz_medium.gif","review_count":4,"schools":["Virginia Tech"],"stars":3.0,"state":"VA","type":"business","url":"http://www.yelp.com/biz/cinco-de-mayo-resturant-christiansburg"},
{"business_id":"j3lZQs0YKMDAwKSbDRNY7Q","categories":["Food","Desserts","Restaurants","Asian Fusion","Tea Rooms"],"city":"Blacksburg","full_address":"801 University City Blvd\nSte 9\nBlacksburg, VA 24060","latitude":37.2337,"longitude":-80.4342,"name":"O-Pass Tea & Crepe","neighborhoods":[],"open":true,"photo_url":"http://s3-media1.px.yelpcdn.com/bphoto/oS5Luy8IaLK9FRRcJ9PSiQ/ms.jpg","review_count":4,"schools":["Virginia Tech"],"stars":4.0,"state":"VA","type":"business","url":"http://www.yelp.com/biz/o-pass-tea-and-crepe-blacksburg"},
{"business_id":"yeVkVm4kFVO25iFjpGKAkg","categories":["Home Services","Real Estate","Apartments"],"city":"Blacksburg","full_address":"750 Hethwood Blvd # 100G\nBlacksburg, VA 24060","latitude":37.2164993286133,"longitude":-80.4532012939453,"name":"Foxridge Apts","neighborhoods":[],"open":true,"photo_url":"http://media1.px.yelpcdn.com/static/201012163223336441/img/gfx/blank_biz_medium.gif","review_count":3,"schools":["Virginia Tech"],"stars":3.5,"state":"VA","type":"business","url":"http://www.yelp.com/biz/foxridge-apts-blacksburg"},
{"business_id":"aURgpKldq6YKqAleHaFUtA","categories":["Mexican","Restaurants"],"city":"Blacksburg","full_address":"117 S Main St\nBlacksburg, VA 24060","latitude":37.2288,"longitude":-80.4131,"name":"Cabo Fish Taco","neighborhoods":[],"open":true,"photo_url":"http://s3-media1.px.yelpcdn.com/bphoto/zdzF_qbkBSUjpSYE6GVoSw/ms.jpg","review_count":41,"schools":["Virginia Tech"],"stars":3.5,"state":"VA","type":"business","url":"http://www.yelp.com/biz/cabo-fish-taco-blacksburg"},
{"business_id":"jw8uu1q59V4-OBfLbFWxsQ","categories":["Food","Specialty Food","Meat Shops"],"city":"Blacksburg","full_address":"2051 Merrimac Rd\nBlacksburg, VA 24060","latitude":37.2043,"longitude":-80.461,"name":"Custom Meats","neighborhoods":[],"open":true,"photo_url":"http://media1.px.yelpcdn.com/static/201012163223336441/img/gfx/blank_biz_medium.gif","review_count":3,"schools":["Virginia Tech"],"stars":5.0,"state":"VA","type":"business","url":"http://www.yelp.com/biz/custom-meats-blacksburg"},
{"business_id":"NLfQp6SUK9vwv3WNURbjIg","categories":["Pizza","Restaurants"],"city":"Blacksburg","full_address":"210 Prices Fork Rd\nSte A\nBlacksburg, VA 24060","latitude":37.23444,"longitude":-80.42122,"name":"Gumby's Pizza","neighborhoods":[],"open":true,"photo_url":"http://s3-media1.px.yelpcdn.com/bphoto/zcUXFbbNuEFYrP7v9160_w/ms.jpg","review_count":12,"schools":["Virginia Tech"],"stars":3.5,"state":"VA","type":"business","url":"http://www.yelp.com/biz/gumbys-pizza-blacksburg"},
{"business_id":"r4panjUBSyDOEtDsSWyf9Q","categories":["Mexican","Restaurants"],"city":"Blacksburg","full_address":"3703 S Main St\nBlacksburg, VA 24060","latitude":37.187157,"longitude":-80.407286,"name":"El Mariachi","neighborhoods":[],"open":true,"photo_url":"http://s3-media2.px.yelpcdn.com/bphoto/F5TjzB4oZhabDA1pxtL3ZA/ms.jpg","review_count":5,"schools":["Virginia Tech"],"stars":4.0,"state":"VA","type":"business","url":"http://www.yelp.com/biz/el-mariachi-blacksburg"},
{"business_id":"p-YvmgcTcpzNS44SSV-26g","categories":["Food","Desserts"],"city":"Blacksburg","full_address":"1560 S Main St\nSte 118\nBlacksburg, VA 24060","latitude":37.213553,"longitude":-80.4006212,"name":"The Chocolate Spike","neighborhoods":[],"open":true,"photo_url":"http://s3-media2.px.yelpcdn.com/bphoto/7zCon61_rs_Oziv1-hja0A/ms.jpg","review_count":3,"schools":["Virginia Tech"],"stars":3.5,"state":"VA","type":"business","url":"http://www.yelp.com/biz/the-chocolate-spike-blacksburg"},
{"business_id":"fm0rDtwGgWf9RjPRzGy1Bg","categories":[],"city":"Blacksburg","full_address":"109 College Ave\nBlacksburg, VA 24060","latitude":37.230685,"longitude":-80.415536,"name":"Rita's Water Ice","neighborhoods":[],"open":true,"photo_url":"http://s3-media4.px.yelpcdn.com/bphoto/P4CqPusgtB6r6aGGPd4KmQ/ms.jpg","review_count":2,"schools":["Virginia Tech"],"stars":5.0,"state":"VA","type":"business","url":"http://www.yelp.com/biz/ritas-water-ice-blacksburg"},
{"business_id":"T0WFU_zBoeHD1-08TX33-g","categories":["Chinese","Restaurants"],"city":"Blacksburg","full_address":"801 University City Blvd\nBlacksburg, VA 24060","latitude":37.2335014343262,"longitude":-80.4331970214844,"name":"Hunan King Chinese Restaurant","neighborhoods":[],"open":true,"photo_url":"http://media1.px.yelpcdn.com/static/201012163223336441/img/gfx/blank_biz_medium.gif","review_count":4,"schools":["Virginia Tech"],"stars":3.0,"state":"VA","type":"business","url":"http://www.yelp.com/biz/hunan-king-chinese-restaurant-blacksburg"},
{"business_id":"X381_JV6xOq3VSsep13GvA","categories":["Sandwiches","Restaurants"],"city":"Blacksburg","full_address":"922 University City Blvd\nBlacksburg, VA 24060","latitude":37.2366981506348,"longitude":-80.4344024658203,"name":"Macado's","neighborhoods":[],"open":true,"photo_url":"http://s3-media3.px.yelpcdn.com/bphoto/amOh4i5D4iWBaLj5R1UNTw/ms.jpg","review_count":24,"schools":["Virginia Tech"],"stars":3.0,"state":"VA","type":"business","url":"http://www.yelp.com/biz/macados-blacksburg"},
{"business_id":"XzsZqaWSTXbyS_kbv7GZSA","categories":["Restaurants"],"city":"Blacksburg","full_address":"1200 S Main St\nBlacksburg, VA 24060","latitude":37.2194609,"longitude":-80.4031586,"name":"Vincents Ristorante","neighborhoods":[],"open":false,"photo_url":"http://media1.px.yelpcdn.com/static/201012163223336441/img/gfx/blank_biz_medium.gif","review_count":3,"schools":["Virginia Tech"],"stars":2.5,"state":"VA","type":"business","url":"http://www.yelp.com/biz/vincents-ristorante-blacksburg"},
{"business_id":"HqPPWAttTuBpDoKnAQt4Vw","categories":["Hotels & Travel","Event Planning & Services","Venues & Event Spaces","Hotels"],"city":"Blacksburg","full_address":"901 Prices Fork Road\nBlacksburg, VA 24061","latitude":37.2316838,"longitude":-80.4329917,"name":"The Inn at Virginia Tech and Skelton Conference Center","neighborhoods":[],"open":true,"photo_url":"http://s3-media4.px.yelpcdn.com/bphoto/OiEvJbRJPnMKByEk9A9sjg/ms.jpg","review_count":8,"schools":["Virginia Tech"],"stars":3.0,"state":"VA","type":"business","url":"http://www.yelp.com/biz/the-inn-at-virginia-tech-and-skelton-conference-center-blacksburg"},
{"business_id":"KreSkshbyugxuaWhCleIww","categories":["Active Life","Gyms","Fitness & Instruction"],"city":"Blacksburg","full_address":"University Mall\n801 University City Blvd\nBlacksburg, VA 24060","latitude":37.2337,"longitude":-80.4342,"name":"Blacksburg Health and Fitness at the Weight Club","neighborhoods":[],"open":true,"photo_url":"http://media1.px.yelpcdn.com/static/201012163223336441/img/gfx/blank_biz_medium.gif","review_count":5,"schools":["Virginia Tech"],"stars":4.5,"state":"VA","type":"business","url":"http://www.yelp.com/biz/blacksburg-health-and-fitness-at-the-weight-club-blacksburg"},
{"business_id":"f2ggWe2Lw3cGeA5T7mk_ZA","categories":["Mexican","Restaurants"],"city":"Blacksburg","full_address":"400 Turner St\nBlacksburg, VA 24060","latitude":37.2331,"longitude":-80.422,"name":"Chu-Cho's Mexican","neighborhoods":[],"open":true,"photo_url":"http://media1.px.yelpcdn.com/static/201012163223336441/img/gfx/blank_biz_medium.gif","review_count":10,"schools":["Virginia Tech"],"stars":2.0,"state":"VA","type":"business","url":"http://www.yelp.com/biz/chu-chos-mexican-blacksburg"},
{"business_id":"WKj7NYkcjY79SvaqIunzVw","categories":["Bars","Nightlife","Restaurants"],"city":"Blacksburg","full_address":"204 Draper Road NW\nBlacksburg, VA 24060","latitude":37.229474,"longitude":-80.415566,"name":"Oge-Chi Restuarant and Lounge","neighborhoods":[],"open":true,"photo_url":"http://media1.px.yelpcdn.com/static/201012163223336441/img/gfx/blank_biz_medium.gif","review_count":2,"schools":["Virginia Tech"],"stars":2.5,"state":"VA","type":"business","url":"http://www.yelp.com/biz/oge-chi-restuarant-and-lounge-blacksburg"},
{"business_id":"lWTR8IrGQSPcHGo1_CHObA","categories":["Tobacco Shops","Shopping"],"city":"Blacksburg","full_address":"408 N Main St\nBlacksburg, VA 24060","latitude":37.2316017150879,"longitude":-80.4158020019531,"name":"Blacksburg Pipe & Tobacco","neighborhoods":[],"open":true,"photo_url":"http://s3-media1.px.yelpcdn.com/bphoto/3xlcsCEDvUzPVJoDDfW9bw/ms.jpg","review_count":3,"schools":["Virginia Tech"],"stars":4.5,"state":"VA","type":"business","url":"http://www.yelp.com/biz/blacksburg-pipe-and-tobacco-blacksburg"},
{"business_id":"hSDRGgXGuX2BtgaIi7qm2w","categories":["Sushi Bars","Restaurants"],"city":"Blacksburg","full_address":"801 University City Blvd Ste 15\nBlacksburg, VA 24060","latitude":37.234296,"longitude":-80.43299,"name":"Sushi Factory","neighborhoods":[],"open":true,"photo_url":"http://s3-media1.px.yelpcdn.com/bphoto/m8oHqHFPHPEUMzQ089qp2g/ms.jpg","review_count":8,"schools":["Virginia Tech"],"stars":4.0,"state":"VA","type":"business","url":"http://www.yelp.com/biz/sushi-factory-blacksburg"},
{"business_id":"zgjMObNE3iH01oEZw76Q7Q","categories":["Food","Beer, Wine & Spirits","Restaurants"],"city":"Christiansburg","full_address":"420 Peppers Ferry Rd NW\nChristiansburg, VA 24073","latitude":37.1618,"longitude":-80.4327,"name":"Blackstone Grill","neighborhoods":[],"open":true,"photo_url":"http://s3-media2.px.yelpcdn.com/bphoto/DwOSwD-dtznI5nIUYa5QQQ/ms.jpg","review_count":2,"schools":["Virginia Tech"],"stars":3.5,"state":"VA","type":"business","url":"http://www.yelp.com/biz/blackstone-grill-christiansburg"},
{"business_id":"t7B9UjbFqdD0BbbYggtqsA","categories":["Hotels & Travel","Event Planning & Services","Hotels"],"city":"Blacksburg","full_address":"105 Southpark Dr\nBlacksburg, VA 24060","latitude":37.1992,"longitude":-80.4012,"name":"Courtyard Blacksburg","neighborhoods":[],"open":true,"photo_url":"http://s3-media4.px.yelpcdn.com/bphoto/bIsXwDQe09dm5qpqIivdjQ/ms.jpg","review_count":4,"schools":["Virginia Tech"],"stars":3.5,"state":"VA","type":"business","url":"http://www.yelp.com/biz/courtyard-blacksburg-blacksburg"},
{"business_id":"morXfiyRSeVh86Pp9SOGQA","categories":["Car Stereo Installation","Automotive","Electronics","Shopping"],"city":"Blacksburg","full_address":"3615 S Main St\nBlacksburg, VA 24060","latitude":37.1875991821289,"longitude":-80.4067993164062,"name":"Scotty's Audio Video","neighborhoods":[],"open":true,"photo_url":"http://s3-media4.px.yelpcdn.com/bphoto/5tIxyshXAVnSomuPaYArjA/ms.jpg","review_count":2,"schools":["Virginia Tech"],"stars":3.0,"state":"VA","type":"business","url":"http://www.yelp.com/biz/scottys-audio-video-blacksburg"},
{"business_id":"Cmim8IrcxWZdJ6SN6CDSAw","categories":["Restaurants"],"city":"Blacksburg","full_address":"400 Turner St NW\nBlacksburg, VA 24060","latitude":37.2329567,"longitude":-80.4215703,"name":"Boston Beanery","neighborhoods":[],"open":false,"photo_url":"http://media1.px.yelpcdn.com/static/201012163223336441/img/gfx/blank_biz_medium.gif","review_count":4,"schools":["Virginia Tech"],"stars":3.0,"state":"VA","type":"business","url":"http://www.yelp.com/biz/boston-beanery-blacksburg"},
{"business_id":"7mfmFcvpl8Xcr3X9ewX4CA","categories":["Nail Salons","Beauty and Spas"],"city":"Blacksburg","full_address":"110 Country Club Dr\nBlacksburg, VA 24060","latitude":37.2178476,"longitude":-80.4020303,"name":"Elite Style Salon","neighborhoods":[],"open":true,"photo_url":"http://media1.px.yelpcdn.com/static/201012163223336441/img/gfx/blank_biz_medium.gif","review_count":2,"schools":["Virginia Tech"],"stars":5.0,"state":"VA","type":"business","url":"http://www.yelp.com/biz/elite-style-salon-blacksburg"},
{"business_id":"4kR9-F-iooU_l_n2mgSGDw","categories":["Food","Beer, Wine & Spirits"],"city":"Blacksburg","full_address":"1338 S Main St\nBlacksburg, VA 24060","latitude":37.2158591,"longitude":-80.4009489,"name":"Vintage Cellar","neighborhoods":[],"open":true,"photo_url":"http://s3-media3.px.yelpcdn.com/bphoto/UU-_VCeruO7kw4Zy24yEqw/ms.jpg","review_count":19,"schools":["Virginia Tech"],"stars":4.5,"state":"VA","type":"business","url":"http://www.yelp.com/biz/vintage-cellar-blacksburg"},
{"business_id":"et0tmr3f3bdZIBfKOwCySQ","categories":["Professional Services"],"city":"Blacksburg","full_address":"Blacksburg, VA 24060","latitude":37.231502,"longitude":-80.428816,"name":"Magnifico Photography","neighborhoods":[],"open":true,"photo_url":"http://media1.px.yelpcdn.com/static/201012163223336441/img/gfx/blank_biz_medium.gif","review_count":2,"schools":["Virginia Tech"],"stars":5.0,"state":"VA","type":"business","url":"http://www.yelp.com/biz/magnifico-photography-blacksburg"},
{"business_id":"CfwAg7i_tEVLXwPtEgxung","categories":["Sporting Goods","Bikes","Shopping"],"city":"Blacksburg","full_address":"1301 S Main St\nBlacksburg, VA 24060","latitude":37.2188987731934,"longitude":-80.4021987915039,"name":"East Coasters Cycling & Fitness","neighborhoods":[],"open":true,"photo_url":"http://media1.px.yelpcdn.com/static/201012163223336441/img/gfx/blank_biz_medium.gif","review_count":3,"schools":["Virginia Tech"],"stars":4.5,"state":"VA","type":"business","url":"http://www.yelp.com/biz/east-coasters-cycling-and-fitness-blacksburg"},
{"business_id":"xRrnli_Yg_Dvu2hBHRfPTA","categories":["Food","Coffee & Tea"],"city":"Blacksburg","full_address":"801 University City Blvd\nBlacksburg, VA 24060","latitude":37.2337,"longitude":-80.4342,"name":"Easy Chair Coffee Shop","neighborhoods":[],"open":true,"photo_url":"http://s3-media2.px.yelpcdn.com/bphoto/8gtq9RvEh7gbivd4tQ6sWw/ms.jpg","review_count":6,"schools":["Virginia Tech"],"stars":4.0,"state":"VA","type":"business","url":"http://www.yelp.com/biz/easy-chair-coffee-shop-blacksburg"},
{"business_id":"PBZCrvjHasay0wqqI58IxA","categories":["Japanese","Restaurants"],"city":"Christiansburg","full_address":"50 Merrimac Rd\nChristiansburg, VA 24073","latitude":37.1763784,"longitude":-80.4185556,"name":"Tataki","neighborhoods":[],"open":false,"photo_url":"http://media1.px.yelpcdn.com/static/201012163223336441/img/gfx/blank_biz_medium.gif","review_count":2,"schools":["Virginia Tech"],"stars":4.5,"state":"VA","type":"business","url":"http://www.yelp.com/biz/tataki-christiansburg"},
{"business_id":"pn96zHTDVP_F68de76Ox5g","categories":["Breakfast & Brunch","Restaurants"],"city":"Christiansburg","full_address":"65 Peppers Ferry Rd NW\nChristiansburg, VA 24073","latitude":37.1646,"longitude":-80.4246,"name":"IHOP","neighborhoods":[],"open":true,"photo_url":"http://s3-media3.px.yelpcdn.com/bphoto/fu6n7fS8jTXoPGV-wH1VyQ/ms.jpg","review_count":4,"schools":["Virginia Tech"],"stars":1.5,"state":"VA","type":"business","url":"http://www.yelp.com/biz/ihop-christiansburg"},
{"business_id":"rAGel9eqVU2XFtRiegHX_A","categories":["Active Life","Mini Golf"],"city":"Blacksburg","full_address":"3500 Prices Fork Rd\nBlacksburg, VA 24060","latitude":37.2159996032715,"longitude":-80.4630966186523,"name":"Cox's Golf Driving Range Putt-A-Round & Battng Cgs","neighborhoods":[],"open":true,"photo_url":"http://media1.px.yelpcdn.com/static/201012163223336441/img/gfx/blank_biz_medium.gif","review_count":2,"schools":["Virginia Tech"],"stars":3.5,"state":"VA","type":"business","url":"http://www.yelp.com/biz/coxs-golf-driving-range-putt-a-round-and-battng-cgs-blacksburg"},
{"business_id":"71py1RG3ev8o6Nk2Dwe1Sg","categories":["Fast Food","Restaurants"],"city":"Blacksburg","full_address":"110 Turner St NW\nBlacksburg, VA 24060","latitude":37.2330017089844,"longitude":-80.418098449707,"name":"McDonald's","neighborhoods":[],"open":true,"photo_url":"http://media1.px.yelpcdn.com/static/201012163223336441/img/gfx/blank_biz_medium.gif","review_count":2,"schools":["Virginia Tech"],"stars":3.0,"state":"VA","type":"business","url":"http://www.yelp.com/biz/mcdonalds-blacksburg-2"},
{"business_id":"n24Vn9DpMwDW5e6MPjOnrA","categories":["Delis","Restaurants"],"city":"Blacksburg","full_address":"310 Turner St NW\nBlacksburg, VA 24060","latitude":37.2330017089844,"longitude":-80.4209976196289,"name":"Sycamore Deli","neighborhoods":[],"open":true,"photo_url":"http://media1.px.yelpcdn.com/static/201012163223336441/img/gfx/blank_biz_medium.gif","review_count":18,"schools":["Virginia Tech"],"stars":4.0,"state":"VA","type":"business","url":"http://www.yelp.com/biz/sycamore-deli-blacksburg-2"},
{"business_id":"KsrMCDF689P4bTBrrbTLjA","categories":["American (Traditional)","Barbeque","Restaurants"],"city":"Blacksburg","full_address":"1470 S Main St\nBlacksburg, VA 24060","latitude":37.2144133,"longitude":-80.4005244,"name":"Bull and Bones Brewhaus and Grill","neighborhoods":[],"open":true,"photo_url":"http://s3-media2.px.yelpcdn.com/bphoto/4uhlsCgYLqWgL505lGtVaw/ms.jpg","review_count":25,"schools":["Virginia Tech"],"stars":3.5,"state":"VA","type":"business","url":"http://www.yelp.com/biz/bull-and-bones-brewhaus-and-grill-blacksburg"},
{"business_id":"Vjag5dfulq_kasZFuUFevQ","categories":["Bars","Restaurants","American (Traditional)","Sports Bars","Nightlife"],"city":"Blacksburg","full_address":"201 N Main St\nBlacksburg, VA 24060","latitude":37.2299999,"longitude":-80.415,"name":"Big Al's Grille & Sports Bar","neighborhoods":[],"open":true,"photo_url":"http://s3-media3.px.yelpcdn.com/bphoto/bi59Qy2-_6kwX6-MtjP2nw/ms.jpg","review_count":3,"schools":["Virginia Tech"],"stars":4.5,"state":"VA","type":"business","url":"http://www.yelp.com/biz/big-als-grille-and-sports-bar-blacksburg"},
{"business_id":"lycHbq5ffGXtmEUE10vYpw","categories":["Sporting Goods","Shopping","Outdoor Gear"],"city":"Blacksburg","full_address":"3710 S Main St\nBlacksburg, VA 24060","latitude":37.187801361084,"longitude":-80.4073028564453,"name":"Back Country Ski & Sports","neighborhoods":[],"open":true,"photo_url":"http://media1.px.yelpcdn.com/static/201012163223336441/img/gfx/blank_biz_medium.gif","review_count":2,"schools":["Virginia Tech"],"stars":3.0,"state":"VA","type":"business","url":"http://www.yelp.com/biz/back-country-ski-and-sports-blacksburg"},
{"business_id":"UWCk_n8xoSZzpQQsf1mx_g","categories":["Restaurants"],"city":"Blacksburg","full_address":"801 University City Blvd\nSte 16\nBlacksburg, VA 24060","latitude":37.2337,"longitude":-80.4342,"name":"Yogi Factory","neighborhoods":[],"open":true,"photo_url":"http://s3-media3.px.yelpcdn.com/bphoto/-cXrvn9dKPh4rPt8c1ljcA/ms.jpg","review_count":2,"schools":["Virginia Tech"],"stars":5.0,"state":"VA","type":"business","url":"http://www.yelp.com/biz/yogi-factory-blacksburg"},
{"business_id":"DFjhSd1CRQBarXbsyPT4WQ","categories":["Barbeque","Restaurants"],"city":"Blacksburg","full_address":"781 University City Blvd\nBlacksburg, VA 24060","latitude":37.233791,"longitude":-80.432924,"name":"Log Cabin BBQ","neighborhoods":[],"open":true,"photo_url":"http://s3-media4.px.yelpcdn.com/bphoto/2lf48eSXEqwnkB7h7sz1lw/ms.jpg","review_count":5,"schools":["Virginia Tech"],"stars":3.0,"state":"VA","type":"business","url":"http://www.yelp.com/biz/log-cabin-bbq-blacksburg"},
{"business_id":"J-pY8tSvUc2ekYnnUR-uQQ","categories":["Fast Food","Restaurants"],"city":"Blacksburg","full_address":"904 Prices Fork Rd\nBlacksburg, VA 24060","latitude":37.2317008972168,"longitude":-80.4322967529297,"name":"Hardee's","neighborhoods":[],"open":true,"photo_url":"http://s3-media2.px.yelpcdn.com/bphoto/feV1KBI8TSHYOdT65cGdhQ/ms.jpg","review_count":2,"schools":["Virginia Tech"],"stars":3.5,"state":"VA","type":"business","url":"http://www.yelp.com/biz/hardees-blacksburg"},
{"business_id":"MyU7EzjeeWriyDwkenfLqA","categories":["Tex-Mex","Restaurants"],"city":"Blacksburg","full_address":"239 N Main Street\nBlacksburg, VA 24060","latitude":37.2302682,"longitude":-80.4149462,"name":"Moe's Southwest Grill","neighborhoods":[],"open":true,"photo_url":"http://media1.px.yelpcdn.com/static/201012163223336441/img/gfx/blank_biz_medium.gif","review_count":6,"schools":["Virginia Tech"],"stars":2.5,"state":"VA","type":"business","url":"http://www.yelp.com/biz/moes-southwest-grill-blacksburg"}]